{
"type": "FeatureCollection",
"name": "arts_centre",
"crs": { "type": "name", "properties": { "name": "urn:ogc:def:crs:OGC:1.3:CRS84" } },
"features": [
{ "type": "Feature", "properties": { "osm_id": "30012753", "code": 2014, "fclass": "arts_centre", "name": "Umspannwerk" }, "geometry": { "type": "Point", "coordinates": [ 13.4291868, 52.4940425 ] } },
{ "type": "Feature", "properties": { "osm_id": "257709121", "code": 2014, "fclass": "arts_centre", "name": "Kulturhaus Spandau" }, "geometry": { "type": "Point", "coordinates": [ 13.2023117, 52.5354787 ] } },
{ "type": "Feature", "properties": { "osm_id": "336786585", "code": 2014, "fclass": "arts_centre", "name": "Kulturzentrum \"Das Haus\" Altes Lager" }, "geometry": { "type": "Point", "coordinates": [ 12.9932533, 52.0077539 ] } },
{ "type": "Feature", "properties": { "osm_id": "341749650", "code": 2014, "fclass": "arts_centre", "name": "SMOK" }, "geometry": { "type": "Point", "coordinates": [ 14.560756, 52.3477556 ] } },
{ "type": "Feature", "properties": { "osm_id": "372353895", "code": 2014, "fclass": "arts_centre", "name": "Kunstforum Berliner Volksbank" }, "geometry": { "type": "Point", "coordinates": [ 13.2889965, 52.5102077 ] } },
{ "type": "Feature", "properties": { "osm_id": "387772994", "code": 2014, "fclass": "arts_centre", "name": "Kunstgalerie" }, "geometry": { "type": "Point", "coordinates": [ 13.3893996, 52.5226914 ] } },
{ "type": "Feature", "properties": { "osm_id": "392073503", "code": 2014, "fclass": "arts_centre", "name": "FRAKIMA" }, "geometry": { "type": "Point", "coordinates": [ 13.5880385, 52.675858 ] } },
{ "type": "Feature", "properties": { "osm_id": "392435384", "code": 2014, "fclass": "arts_centre", "name": null }, "geometry": { "type": "Point", "coordinates": [ 13.6491703, 51.6933401 ] } },
{ "type": "Feature", "properties": { "osm_id": "472471473", "code": 2014, "fclass": "arts_centre", "name": "Schinkelhalle, Kunstraum Potsdam" }, "geometry": { "type": "Point", "coordinates": [ 13.0720456, 52.4025752 ] } },
{ "type": "Feature", "properties": { "osm_id": "510609732", "code": 2014, "fclass": "arts_centre", "name": "Fermate Studio" }, "geometry": { "type": "Point", "coordinates": [ 13.7031231, 52.5156493 ] } },
{ "type": "Feature", "properties": { "osm_id": "534850918", "code": 2014, "fclass": "arts_centre", "name": "Ratz-Fatz" }, "geometry": { "type": "Point", "coordinates": [ 13.5320915, 52.4519118 ] } },
{ "type": "Feature", "properties": { "osm_id": "561213497", "code": 2014, "fclass": "arts_centre", "name": "Kleist Forum" }, "geometry": { "type": "Point", "coordinates": [ 14.5442439, 52.3426348 ] } },
{ "type": "Feature", "properties": { "osm_id": "564320345", "code": 2014, "fclass": "arts_centre", "name": "Kulturscheune Seehausen" }, "geometry": { "type": "Point", "coordinates": [ 12.9134431, 51.9517868 ] } },
{ "type": "Feature", "properties": { "osm_id": "618745480", "code": 2014, "fclass": "arts_centre", "name": "Icon" }, "geometry": { "type": "Point", "coordinates": [ 13.4007469, 52.5331701 ] } },
{ "type": "Feature", "properties": { "osm_id": "622642556", "code": 2014, "fclass": "arts_centre", "name": "Art Center Berlin" }, "geometry": { "type": "Point", "coordinates": [ 13.3874786, 52.5232893 ] } },
{ "type": "Feature", "properties": { "osm_id": "653957750", "code": 2014, "fclass": "arts_centre", "name": "Limbus Europae" }, "geometry": { "type": "Point", "coordinates": [ 13.4242092, 52.4758846 ] } },
{ "type": "Feature", "properties": { "osm_id": "672798786", "code": 2014, "fclass": "arts_centre", "name": "Galerie Wedding" }, "geometry": { "type": "Point", "coordinates": [ 13.3566625, 52.547522 ] } },
{ "type": "Feature", "properties": { "osm_id": "734960871", "code": 2014, "fclass": "arts_centre", "name": "OpenStudio" }, "geometry": { "type": "Point", "coordinates": [ 13.3956763, 52.539387 ] } },
{ "type": "Feature", "properties": { "osm_id": "766503878", "code": 2014, "fclass": "arts_centre", "name": null }, "geometry": { "type": "Point", "coordinates": [ 14.238543, 52.762277 ] } },
{ "type": "Feature", "properties": { "osm_id": "771225710", "code": 2014, "fclass": "arts_centre", "name": "N.B.K." }, "geometry": { "type": "Point", "coordinates": [ 13.3860465, 52.5279121 ] } },
{ "type": "Feature", "properties": { "osm_id": "840326903", "code": 2014, "fclass": "arts_centre", "name": "Kulturhaus" }, "geometry": { "type": "Point", "coordinates": [ 14.6696847, 51.9505368 ] } },
{ "type": "Feature", "properties": { "osm_id": "846034715", "code": 2014, "fclass": "arts_centre", "name": "Wasserwerk, Jugendclub" }, "geometry": { "type": "Point", "coordinates": [ 13.2803084, 52.6847438 ] } },
{ "type": "Feature", "properties": { "osm_id": "866058308", "code": 2014, "fclass": "arts_centre", "name": "SOX" }, "geometry": { "type": "Point", "coordinates": [ 13.4186726, 52.5012357 ] } },
{ "type": "Feature", "properties": { "osm_id": "867738691", "code": 2014, "fclass": "arts_centre", "name": "sakamotocontemporary" }, "geometry": { "type": "Point", "coordinates": [ 13.4144913, 52.5024545 ] } },
{ "type": "Feature", "properties": { "osm_id": "915821308", "code": 2014, "fclass": "arts_centre", "name": "Jugendclub" }, "geometry": { "type": "Point", "coordinates": [ 12.827245, 52.2560655 ] } },
{ "type": "Feature", "properties": { "osm_id": "942284652", "code": 2014, "fclass": "arts_centre", "name": "Kulturzentrum „KUZ“" }, "geometry": { "type": "Point", "coordinates": [ 14.6326514, 52.1404492 ] } },
{ "type": "Feature", "properties": { "osm_id": "961626642", "code": 2014, "fclass": "arts_centre", "name": "dada galerie" }, "geometry": { "type": "Point", "coordinates": [ 13.3882296, 52.5264513 ] } },
{ "type": "Feature", "properties": { "osm_id": "1022709683", "code": 2014, "fclass": "arts_centre", "name": "Raum29" }, "geometry": { "type": "Point", "coordinates": [ 13.2923444, 52.5153278 ] } },
{ "type": "Feature", "properties": { "osm_id": "1065469663", "code": 2014, "fclass": "arts_centre", "name": "Cultur Congress Centrum" }, "geometry": { "type": "Point", "coordinates": [ 12.5556663, 52.4077053 ] } },
{ "type": "Feature", "properties": { "osm_id": "1102262018", "code": 2014, "fclass": "arts_centre", "name": "Jugendclub" }, "geometry": { "type": "Point", "coordinates": [ 14.4742682, 52.3703012 ] } },
{ "type": "Feature", "properties": { "osm_id": "1102262472", "code": 2014, "fclass": "arts_centre", "name": "Kinder- und Jugendzentrum \"Haltestelle Süd\"" }, "geometry": { "type": "Point", "coordinates": [ 14.5172864, 52.3298352 ] } },
{ "type": "Feature", "properties": { "osm_id": "1139505061", "code": 2014, "fclass": "arts_centre", "name": "Schwedenstein" }, "geometry": { "type": "Point", "coordinates": [ 12.4850683, 53.1570015 ] } },
{ "type": "Feature", "properties": { "osm_id": "1181726882", "code": 2014, "fclass": "arts_centre", "name": "grimmuseum" }, "geometry": { "type": "Point", "coordinates": [ 13.4128111, 52.4910329 ] } },
{ "type": "Feature", "properties": { "osm_id": "1216694752", "code": 2014, "fclass": "arts_centre", "name": "NOrthEurope/WestGermany" }, "geometry": { "type": "Point", "coordinates": [ 13.419614, 52.499265 ] } },
{ "type": "Feature", "properties": { "osm_id": "1216706172", "code": 2014, "fclass": "arts_centre", "name": "NK" }, "geometry": { "type": "Point", "coordinates": [ 13.448829, 52.4857993 ] } },
{ "type": "Feature", "properties": { "osm_id": "1216725461", "code": 2014, "fclass": "arts_centre", "name": "ohrenhoch - der Geräuschladen" }, "geometry": { "type": "Point", "coordinates": [ 13.4360547, 52.4868316 ] } },
{ "type": "Feature", "properties": { "osm_id": "1216725466", "code": 2014, "fclass": "arts_centre", "name": "Ausland" }, "geometry": { "type": "Point", "coordinates": [ 13.4194785, 52.5448387 ] } },
{ "type": "Feature", "properties": { "osm_id": "1246402209", "code": 2014, "fclass": "arts_centre", "name": "Schlesische 27" }, "geometry": { "type": "Point", "coordinates": [ 13.4480786, 52.4985811 ] } },
{ "type": "Feature", "properties": { "osm_id": "1269889052", "code": 2014, "fclass": "arts_centre", "name": "Centre Français de Berlin" }, "geometry": { "type": "Point", "coordinates": [ 13.3391068, 52.5583852 ] } },
{ "type": "Feature", "properties": { "osm_id": "1343859057", "code": 2014, "fclass": "arts_centre", "name": "Galerie Christa Koselitz" }, "geometry": { "type": "Point", "coordinates": [ 13.2674413, 52.6761165 ] } },
{ "type": "Feature", "properties": { "osm_id": "1440441330", "code": 2014, "fclass": "arts_centre", "name": "Kulturscheune" }, "geometry": { "type": "Point", "coordinates": [ 13.0413922, 52.2702657 ] } },
{ "type": "Feature", "properties": { "osm_id": "1478259435", "code": 2014, "fclass": "arts_centre", "name": "Kunstraum Kreuzberg" }, "geometry": { "type": "Point", "coordinates": [ 13.4237552, 52.5045518 ] } },
{ "type": "Feature", "properties": { "osm_id": "1515998495", "code": 2014, "fclass": "arts_centre", "name": "Jugendfreizeithaus C.O.R.N." }, "geometry": { "type": "Point", "coordinates": [ 13.2767475, 52.6958469 ] } },
{ "type": "Feature", "properties": { "osm_id": "1567522307", "code": 2014, "fclass": "arts_centre", "name": "Haus der Naturfreunde" }, "geometry": { "type": "Point", "coordinates": [ 13.5944651, 52.7526023 ] } },
{ "type": "Feature", "properties": { "osm_id": "1573750954", "code": 2014, "fclass": "arts_centre", "name": "Kultur in der Petruskirche" }, "geometry": { "type": "Point", "coordinates": [ 13.3280056, 52.4251253 ] } },
{ "type": "Feature", "properties": { "osm_id": "1622978946", "code": 2014, "fclass": "arts_centre", "name": "Galerie Fango" }, "geometry": { "type": "Point", "coordinates": [ 14.3341478, 51.7665148 ] } },
{ "type": "Feature", "properties": { "osm_id": "1853301507", "code": 2014, "fclass": "arts_centre", "name": "Hörspielbahnhof" }, "geometry": { "type": "Point", "coordinates": [ 13.7547483, 52.9637861 ] } },
{ "type": "Feature", "properties": { "osm_id": "1882363954", "code": 2014, "fclass": "arts_centre", "name": "Literaturhaus" }, "geometry": { "type": "Point", "coordinates": [ 13.3268653, 52.5021388 ] } },
{ "type": "Feature", "properties": { "osm_id": "1904205947", "code": 2014, "fclass": "arts_centre", "name": "Mind Pirates" }, "geometry": { "type": "Point", "coordinates": [ 13.4455523, 52.5006861 ] } },
{ "type": "Feature", "properties": { "osm_id": "2013479447", "code": 2014, "fclass": "arts_centre", "name": "Alte Scheune" }, "geometry": { "type": "Point", "coordinates": [ 13.5548974, 53.058378 ] } },
{ "type": "Feature", "properties": { "osm_id": "2074897934", "code": 2014, "fclass": "arts_centre", "name": "Kulturhaus Golzow" }, "geometry": { "type": "Point", "coordinates": [ 14.4907949, 52.5726079 ] } },
{ "type": "Feature", "properties": { "osm_id": "2140336965", "code": 2014, "fclass": "arts_centre", "name": "Kultur-Konsum" }, "geometry": { "type": "Point", "coordinates": [ 13.9296026, 52.8337555 ] } },
{ "type": "Feature", "properties": { "osm_id": "2280779378", "code": 2014, "fclass": "arts_centre", "name": "Crystal" }, "geometry": { "type": "Point", "coordinates": [ 13.3912374, 52.4848036 ] } },
{ "type": "Feature", "properties": { "osm_id": "2304195635", "code": 2014, "fclass": "arts_centre", "name": "Alte Färberei" }, "geometry": { "type": "Point", "coordinates": [ 14.7129675, 51.9506282 ] } },
{ "type": "Feature", "properties": { "osm_id": "2321051159", "code": 2014, "fclass": "arts_centre", "name": "Bürerhaus Wendische Kirche" }, "geometry": { "type": "Point", "coordinates": [ 14.0061575, 51.5199027 ] } },
{ "type": "Feature", "properties": { "osm_id": "2374926524", "code": 2014, "fclass": "arts_centre", "name": "Theater Aufbau Kreuzberg" }, "geometry": { "type": "Point", "coordinates": [ 13.4088806, 52.5032468 ] } },
{ "type": "Feature", "properties": { "osm_id": "2456821792", "code": 2014, "fclass": "arts_centre", "name": "Stadtteilzentrum Pankow Bürgerhaus e.V." }, "geometry": { "type": "Point", "coordinates": [ 13.3996926, 52.5699319 ] } },
{ "type": "Feature", "properties": { "osm_id": "2477041850", "code": 2014, "fclass": "arts_centre", "name": "Michaela Helfrich Galerie" }, "geometry": { "type": "Point", "coordinates": [ 13.4244272, 52.4772275 ] } },
{ "type": "Feature", "properties": { "osm_id": "2483030293", "code": 2014, "fclass": "arts_centre", "name": "Tanzfabrik Berlin" }, "geometry": { "type": "Point", "coordinates": [ 13.379104, 52.4907694 ] } },
{ "type": "Feature", "properties": { "osm_id": "2525123187", "code": 2014, "fclass": "arts_centre", "name": "Exil" }, "geometry": { "type": "Point", "coordinates": [ 13.7716287, 52.841925 ] } },
{ "type": "Feature", "properties": { "osm_id": "2674916628", "code": 2014, "fclass": "arts_centre", "name": "Katakomben" }, "geometry": { "type": "Point", "coordinates": [ 13.375692, 52.4879104 ] } },
{ "type": "Feature", "properties": { "osm_id": "2697931610", "code": 2014, "fclass": "arts_centre", "name": null }, "geometry": { "type": "Point", "coordinates": [ 13.3689048, 51.5481067 ] } },
{ "type": "Feature", "properties": { "osm_id": "2796309823", "code": 2014, "fclass": "arts_centre", "name": "Kiez Galerie / Initiative" }, "geometry": { "type": "Point", "coordinates": [ 13.4473994, 52.4909736 ] } },
{ "type": "Feature", "properties": { "osm_id": "2825036523", "code": 2014, "fclass": "arts_centre", "name": "Vetomat" }, "geometry": { "type": "Point", "coordinates": [ 13.4606574, 52.5087036 ] } },
{ "type": "Feature", "properties": { "osm_id": "2830792309", "code": 2014, "fclass": "arts_centre", "name": "Theaterspielraum Bethanien" }, "geometry": { "type": "Point", "coordinates": [ 13.4232108, 52.5036751 ] } },
{ "type": "Feature", "properties": { "osm_id": "2856161800", "code": 2014, "fclass": "arts_centre", "name": "Lab for Emerging Arts and Performance" }, "geometry": { "type": "Point", "coordinates": [ 13.3941846, 52.511189 ] } },
{ "type": "Feature", "properties": { "osm_id": "2950100933", "code": 2014, "fclass": "arts_centre", "name": "Drink and Draw" }, "geometry": { "type": "Point", "coordinates": [ 13.4120477, 52.5137271 ] } },
{ "type": "Feature", "properties": { "osm_id": "2965254689", "code": 2014, "fclass": "arts_centre", "name": "Haus für Poesie" }, "geometry": { "type": "Point", "coordinates": [ 13.4132824, 52.5400024 ] } },
{ "type": "Feature", "properties": { "osm_id": "3144651070", "code": 2014, "fclass": "arts_centre", "name": "Kotti Shop" }, "geometry": { "type": "Point", "coordinates": [ 13.4192379, 52.4997485 ] } },
{ "type": "Feature", "properties": { "osm_id": "3343043950", "code": 2014, "fclass": "arts_centre", "name": "Gangway e.V. - Verein für Straßensozialarbeit" }, "geometry": { "type": "Point", "coordinates": [ 13.3801493, 52.5234806 ] } },
{ "type": "Feature", "properties": { "osm_id": "3407383609", "code": 2014, "fclass": "arts_centre", "name": "Oranienwerk" }, "geometry": { "type": "Point", "coordinates": [ 13.2238292, 52.7513611 ] } },
{ "type": "Feature", "properties": { "osm_id": "3449612281", "code": 2014, "fclass": "arts_centre", "name": "Tanzfabrik Berlin Studio 4" }, "geometry": { "type": "Point", "coordinates": [ 13.3774412, 52.4907089 ] } },
{ "type": "Feature", "properties": { "osm_id": "3449612282", "code": 2014, "fclass": "arts_centre", "name": "Tanzfabrik Berlin Studios 1-3" }, "geometry": { "type": "Point", "coordinates": [ 13.3777744, 52.4907684 ] } },
{ "type": "Feature", "properties": { "osm_id": "3514216742", "code": 2014, "fclass": "arts_centre", "name": "Sperl Galerie" }, "geometry": { "type": "Point", "coordinates": [ 13.04713, 52.4008112 ] } },
{ "type": "Feature", "properties": { "osm_id": "3534557093", "code": 2014, "fclass": "arts_centre", "name": "Mahn- u. Gedenkstätte Ravensbrück Gruppenräume" }, "geometry": { "type": "Point", "coordinates": [ 13.1612161, 53.1911724 ] } },
{ "type": "Feature", "properties": { "osm_id": "3736707200", "code": 2014, "fclass": "arts_centre", "name": "Musikscheune" }, "geometry": { "type": "Point", "coordinates": [ 13.0162183, 52.9348765 ] } },
{ "type": "Feature", "properties": { "osm_id": "3872556357", "code": 2014, "fclass": "arts_centre", "name": "Chaos Computer Club Berlin" }, "geometry": { "type": "Point", "coordinates": [ 13.38283, 52.5217046 ] } },
{ "type": "Feature", "properties": { "osm_id": "3900935678", "code": 2014, "fclass": "arts_centre", "name": "Seniorenbegegnungsstätte" }, "geometry": { "type": "Point", "coordinates": [ 13.4176996, 52.5376808 ] } },
{ "type": "Feature", "properties": { "osm_id": "4002168008", "code": 2014, "fclass": "arts_centre", "name": "Urbanraum" }, "geometry": { "type": "Point", "coordinates": [ 13.4230332, 52.4892273 ] } },
{ "type": "Feature", "properties": { "osm_id": "4040393791", "code": 2014, "fclass": "arts_centre", "name": "Kulturhaus" }, "geometry": { "type": "Point", "coordinates": [ 12.811456, 52.9290228 ] } },
{ "type": "Feature", "properties": { "osm_id": "4219262248", "code": 2014, "fclass": "arts_centre", "name": "Sammlung Boros" }, "geometry": { "type": "Point", "coordinates": [ 13.38404, 52.523509 ] } },
{ "type": "Feature", "properties": { "osm_id": "4230742573", "code": 2014, "fclass": "arts_centre", "name": "ari-kreativ Werkstatt-Laden" }, "geometry": { "type": "Point", "coordinates": [ 14.6519197, 51.9479423 ] } },
{ "type": "Feature", "properties": { "osm_id": "4307271494", "code": 2014, "fclass": "arts_centre", "name": "Heimatstube" }, "geometry": { "type": "Point", "coordinates": [ 13.3146109, 53.2106617 ] } },
{ "type": "Feature", "properties": { "osm_id": "4371996991", "code": 2014, "fclass": "arts_centre", "name": null }, "geometry": { "type": "Point", "coordinates": [ 13.7536138, 52.9719759 ] } },
{ "type": "Feature", "properties": { "osm_id": "4424818907", "code": 2014, "fclass": "arts_centre", "name": "Wiesenburg" }, "geometry": { "type": "Point", "coordinates": [ 13.3750305, 52.5457706 ] } },
{ "type": "Feature", "properties": { "osm_id": "4549849349", "code": 2014, "fclass": "arts_centre", "name": "Kulturhaus Karlshorst" }, "geometry": { "type": "Point", "coordinates": [ 13.5251196, 52.4820582 ] } },
{ "type": "Feature", "properties": { "osm_id": "4683718575", "code": 2014, "fclass": "arts_centre", "name": "silent green Kulturquartier" }, "geometry": { "type": "Point", "coordinates": [ 13.3665464, 52.5460293 ] } },
{ "type": "Feature", "properties": { "osm_id": "4954306161", "code": 2014, "fclass": "arts_centre", "name": "Inselgalerie" }, "geometry": { "type": "Point", "coordinates": [ 13.4522163, 52.5188379 ] } },
{ "type": "Feature", "properties": { "osm_id": "5036244600", "code": 2014, "fclass": "arts_centre", "name": "Neues Atelierhaus Panzerhalle" }, "geometry": { "type": "Point", "coordinates": [ 13.124034, 52.4862421 ] } },
{ "type": "Feature", "properties": { "osm_id": "5036244602", "code": 2014, "fclass": "arts_centre", "name": "Atelierhaus Scholle 51" }, "geometry": { "type": "Point", "coordinates": [ 13.0222079, 52.3936679 ] } },
{ "type": "Feature", "properties": { "osm_id": "5083213423", "code": 2014, "fclass": "arts_centre", "name": "Spreewerkstätten" }, "geometry": { "type": "Point", "coordinates": [ 13.4100789, 52.5151377 ] } },
{ "type": "Feature", "properties": { "osm_id": "5102712064", "code": 2014, "fclass": "arts_centre", "name": "Group Global 3000 - Art and other Sustainabilities" }, "geometry": { "type": "Point", "coordinates": [ 13.4180986, 52.5046646 ] } },
{ "type": "Feature", "properties": { "osm_id": "5318463102", "code": 2014, "fclass": "arts_centre", "name": "Kulturhaus \"Johannes R. Becher\"" }, "geometry": { "type": "Point", "coordinates": [ 13.0744186, 52.5803643 ] } },
{ "type": "Feature", "properties": { "osm_id": "5335602741", "code": 2014, "fclass": "arts_centre", "name": "Art on the run" }, "geometry": { "type": "Point", "coordinates": [ 13.4081665, 52.5524423 ] } },
{ "type": "Feature", "properties": { "osm_id": "5483290365", "code": 2014, "fclass": "arts_centre", "name": "Neon Kunst" }, "geometry": { "type": "Point", "coordinates": [ 13.4206105, 52.476758 ] } },
{ "type": "Feature", "properties": { "osm_id": "5513859122", "code": 2014, "fclass": "arts_centre", "name": "Der Bunker" }, "geometry": { "type": "Point", "coordinates": [ 13.2877333, 52.4802185 ] } },
{ "type": "Feature", "properties": { "osm_id": "5598516607", "code": 2014, "fclass": "arts_centre", "name": "Kinki Color" }, "geometry": { "type": "Point", "coordinates": [ 13.056048, 52.4026504 ] } },
{ "type": "Feature", "properties": { "osm_id": "5618342958", "code": 2014, "fclass": "arts_centre", "name": "Flutgraben e.V." }, "geometry": { "type": "Point", "coordinates": [ 13.4513962, 52.4972679 ] } },
{ "type": "Feature", "properties": { "osm_id": "5885453687", "code": 2014, "fclass": "arts_centre", "name": "Gubiński Dom Kultury" }, "geometry": { "type": "Point", "coordinates": [ 14.7241269, 51.9523463 ] } },
{ "type": "Feature", "properties": { "osm_id": "5936769594", "code": 2014, "fclass": "arts_centre", "name": "Kulturzentrum Haus Gartenstraße" }, "geometry": { "type": "Point", "coordinates": [ 12.8795781, 52.6055704 ] } },
{ "type": "Feature", "properties": { "osm_id": "5968330278", "code": 2014, "fclass": "arts_centre", "name": "Haus am Lützowplatz" }, "geometry": { "type": "Point", "coordinates": [ 13.3535546, 52.5043546 ] } },
{ "type": "Feature", "properties": { "osm_id": "5970389728", "code": 2014, "fclass": "arts_centre", "name": "European Roma Institute for Arts and Culture" }, "geometry": { "type": "Point", "coordinates": [ 13.3789179, 52.5223227 ] } },
{ "type": "Feature", "properties": { "osm_id": "5998664736", "code": 2014, "fclass": "arts_centre", "name": "Deutsches Architektur Zentrum" }, "geometry": { "type": "Point", "coordinates": [ 13.424668, 52.509809 ] } },
{ "type": "Feature", "properties": { "osm_id": "6080125960", "code": 2014, "fclass": "arts_centre", "name": "KunstHaus Potsdam" }, "geometry": { "type": "Point", "coordinates": [ 13.0511342, 52.4061367 ] } },
{ "type": "Feature", "properties": { "osm_id": "6109284926", "code": 2014, "fclass": "arts_centre", "name": "Katapult" }, "geometry": { "type": "Point", "coordinates": [ 13.5101473, 52.4626347 ] } },
{ "type": "Feature", "properties": { "osm_id": "6176650528", "code": 2014, "fclass": "arts_centre", "name": "Studio3926" }, "geometry": { "type": "Point", "coordinates": [ 13.386441, 52.5678034 ] } },
{ "type": "Feature", "properties": { "osm_id": "6176650529", "code": 2014, "fclass": "arts_centre", "name": "Ateliers" }, "geometry": { "type": "Point", "coordinates": [ 13.3859099, 52.5679261 ] } },
{ "type": "Feature", "properties": { "osm_id": "6245627492", "code": 2014, "fclass": "arts_centre", "name": "Artistania Atelier" }, "geometry": { "type": "Point", "coordinates": [ 13.4340477, 52.4801013 ] } },
{ "type": "Feature", "properties": { "osm_id": "6284471183", "code": 2014, "fclass": "arts_centre", "name": "takt" }, "geometry": { "type": "Point", "coordinates": [ 13.4029014, 52.5487416 ] } },
{ "type": "Feature", "properties": { "osm_id": "6612961272", "code": 2014, "fclass": "arts_centre", "name": "Kulturraum Mainzer 7" }, "geometry": { "type": "Point", "coordinates": [ 13.4272717, 52.4837992 ] } },
{ "type": "Feature", "properties": { "osm_id": "6630979556", "code": 2014, "fclass": "arts_centre", "name": "Internationales Theaterinstitut Deutschland" }, "geometry": { "type": "Point", "coordinates": [ 13.424156, 52.5036639 ] } },
{ "type": "Feature", "properties": { "osm_id": "6892139318", "code": 2014, "fclass": "arts_centre", "name": "Kostümkollektiv Berlin e.V." }, "geometry": { "type": "Point", "coordinates": [ 13.4241227, 52.5039317 ] } },
{ "type": "Feature", "properties": { "osm_id": "6961544194", "code": 2014, "fclass": "arts_centre", "name": "Kulturschöpfer" }, "geometry": { "type": "Point", "coordinates": [ 13.4501398, 52.512984 ] } },
{ "type": "Feature", "properties": { "osm_id": "7041066639", "code": 2014, "fclass": "arts_centre", "name": "Polyphony e.V." }, "geometry": { "type": "Point", "coordinates": [ 13.3802405, 52.5685131 ] } },
{ "type": "Feature", "properties": { "osm_id": "7131941724", "code": 2014, "fclass": "arts_centre", "name": "Institut Français Berlin" }, "geometry": { "type": "Point", "coordinates": [ 13.3247598, 52.5020688 ] } },
{ "type": "Feature", "properties": { "osm_id": "7687041006", "code": 2014, "fclass": "arts_centre", "name": "KULTURscheune Thyrow" }, "geometry": { "type": "Point", "coordinates": [ 13.2447965, 52.2496533 ] } },
{ "type": "Feature", "properties": { "osm_id": "7710976597", "code": 2014, "fclass": "arts_centre", "name": "Ber Verk" }, "geometry": { "type": "Point", "coordinates": [ 13.3811057, 52.5602762 ] } },
{ "type": "Feature", "properties": { "osm_id": "7710976600", "code": 2014, "fclass": "arts_centre", "name": "Dritte Rampe" }, "geometry": { "type": "Point", "coordinates": [ 13.3814558, 52.5601827 ] } },
{ "type": "Feature", "properties": { "osm_id": "8000704915", "code": 2014, "fclass": "arts_centre", "name": "Resi Art" }, "geometry": { "type": "Point", "coordinates": [ 13.3617898, 52.5692572 ] } },
{ "type": "Feature", "properties": { "osm_id": "8071930294", "code": 2014, "fclass": "arts_centre", "name": "Betonhalle" }, "geometry": { "type": "Point", "coordinates": [ 13.3665915, 52.5453673 ] } },
{ "type": "Feature", "properties": { "osm_id": "8267040592", "code": 2014, "fclass": "arts_centre", "name": "L'écritoire" }, "geometry": { "type": "Point", "coordinates": [ 13.3715609, 52.5418528 ] } }
]
}
